{
    "type": "FeatureCollection", 
    "features": [
        {
            "geometry": {
                "type": "Point", 
                "coordinates": [
                    -0.12856445565362837, 
                    51.500963708589246
                ]
            }, 
            "type": "Feature", 
            "properties": {
                "name": "Liberal Democrats"
            }
        }, 
        {
            "geometry": {
                "type": "Point", 
                "coordinates": [
                    -4.0623407398992795, 
                    53.187345109632396
                ]
            }, 
            "type": "Feature", 
            "properties": {
                "name": "Arfon Ie dros Gymru (Arfon Yes for Wales)"
            }
        }, 
        {
            "geometry": {
                "type": "Point", 
                "coordinates": [
                    -4.081777015250557, 
                    52.41687768839038
                ]
            }, 
            "type": "Feature", 
            "properties": {
                "name": "Ymgyrch Ie yng Ngheredigion (Yes Campaign in Ceredigion)"
            }
        }, 
        {
            "geometry": {
                "type": "Point", 
                "coordinates": [
                    -3.1898619733310283, 
                    51.48177073759005
                ]
            }, 
            "type": "Feature", 
            "properties": {
                "name": "Wales TUC Cymru"
            }
        }, 
        {
            "geometry": {
                "type": "Point", 
                "coordinates": [
                    -3.177446590061616, 
                    51.49176919917662
                ]
            }, 
            "type": "Feature", 
            "properties": {
                "name": "Cardiff Says Yes (Caerdydd yn dweud Ie)"
            }
        }, 
        {
            "geometry": {
                "type": "Point", 
                "coordinates": [
                    -3.450610844140755, 
                    51.61367905120482
                ]
            }, 
            "type": "Feature", 
            "properties": {
                "name": "Rhondda Says Yes (Rhondda yn dweud Ie)"
            }
        }, 
        {
            "geometry": {
                "type": "Point", 
                "coordinates": [
                    -3.7677043090723283, 
                    51.59144554866983
                ]
            }, 
            "type": "Feature", 
            "properties": {
                "name": "March 3 is \"Vote No Day\""
            }
        }, 
        {
            "geometry": {
                "type": "Point", 
                "coordinates": [
                    -3.924720015752671, 
                    51.65939460066277
                ]
            }, 
            "type": "Feature", 
            "properties": {
                "name": "Yes for Wales Swansea (Ie Dros Gymru Abertawe)"
            }
        }, 
        {
            "geometry": {
                "type": "Point", 
                "coordinates": [
                    -3.761493844092139, 
                    51.57868895524025
                ]
            }, 
            "type": "Feature", 
            "properties": {
                "name": "Aberavon Yes for Wales"
            }
        }, 
        {
            "geometry": {
                "type": "Point", 
                "coordinates": [
                    -3.641419834346747, 
                    51.60082451602181
                ]
            }, 
            "type": "Feature", 
            "properties": {
                "name": "Bridgend & Ogmore Yes Campaign"
            }
        }, 
        {
            "geometry": {
                "type": "Point", 
                "coordinates": [
                    -3.7983597408029866, 
                    51.653341208868085
                ]
            }, 
            "type": "Feature", 
            "properties": {
                "name": "Neath Says Yes"
            }
        }, 
        {
            "geometry": {
                "type": "Point", 
                "coordinates": [
                    -3.028508910513177, 
                    51.840360579330785
                ]
            }, 
            "type": "Feature", 
            "properties": {
                "name": "Monmouthshire Says Yes"
            }
        }, 
        {
            "geometry": {
                "type": "Point", 
                "coordinates": [
                    -0.09723912430659762, 
                    51.5068893329643
                ]
            }, 
            "type": "Feature", 
            "properties": {
                "name": "Labour Yes"
            }
        }, 
        {
            "geometry": {
                "type": "Point", 
                "coordinates": [
                    -0.11329296381870929, 
                    51.53197706510536
                ]
            }, 
            "type": "Feature", 
            "properties": {
                "name": "Unlock Democracy"
            }
        }, 
        {
            "geometry": {
                "type": "Point", 
                "coordinates": [
                    -0.10728773497814958, 
                    51.511629826152934
                ]
            }, 
            "type": "Feature", 
            "properties": {
                "name": "Yes in May 2011 Ltd"
            }
        }, 
        {
            "geometry": {
                "type": "Point", 
                "coordinates": [
                    -0.1029449133745856, 
                    51.50515696035446
                ]
            }, 
            "type": "Feature", 
            "properties": {
                "name": "Electoral Reform Society Limited"
            }
        }, 
        {
            "geometry": {
                "type": "Point", 
                "coordinates": [
                    -0.1280478201611657, 
                    51.496342289674196
                ]
            }, 
            "type": "Feature", 
            "properties": {
                "name": "No Campaign Limited"
            }
        }, 
        {
            "geometry": {
                "type": "Point", 
                "coordinates": [
                    -0.12127348261063427, 
                    51.492915705578326
                ]
            }, 
            "type": "Feature", 
            "properties": {
                "name": "Labour No to AV"
            }
        }, 
        {
            "geometry": {
                "type": "Point", 
                "coordinates": [
                    -0.11329296381870929, 
                    51.53197706510536
                ]
            }, 
            "type": "Feature", 
            "properties": {
                "name": "Conservative Yes"
            }
        }, 
        {
            "geometry": {
                "type": "Point", 
                "coordinates": [
                    -4.546581308400571, 
                    53.354129948871446
                ]
            }, 
            "type": "Feature", 
            "properties": {
                "name": "Ie Ynys Mon"
            }
        }, 
        {
            "geometry": {
                "type": "Point", 
                "coordinates": [
                    -3.0708607697994115, 
                    51.72637625917042
                ]
            }, 
            "type": "Feature", 
            "properties": {
                "name": "Torfaen says \"Yes\""
            }
        }, 
        {
            "geometry": {
                "type": "Point", 
                "coordinates": [
                    -0.13631454903857013, 
                    51.49923466347958
                ]
            }, 
            "type": "Feature", 
            "properties": {
                "name": "Conservative Party"
            }
        }, 
        {
            "geometry": {
                "type": "Point", 
                "coordinates": [
                    -0.12856445565362837, 
                    51.500963708589246
                ]
            }, 
            "type": "Feature", 
            "properties": {
                "name": "Liberal Democrats"
            }
        }, 
        {
            "geometry": {
                "type": "Point", 
                "coordinates": [
                    -0.13896540984783137, 
                    51.538133355901856
                ]
            }, 
            "type": "Feature", 
            "properties": {
                "name": "No to AV, Yes to PR"
            }
        }, 
        {
            "geometry": {
                "type": "Point", 
                "coordinates": [
                    -5.928619190263009, 
                    54.58633486750059
                ]
            }, 
            "type": "Feature", 
            "properties": {
                "name": "Alliance - Alliance Party of Northern Ireland"
            }
        }, 
        {
            "geometry": {
                "type": "Point", 
                "coordinates": [
                    -4.25778491836431, 
                    55.86219649815973
                ]
            }, 
            "type": "Feature", 
            "properties": {
                "name": "Yes Scotland Limited"
            }
        }, 
        {
            "geometry": {
                "type": "Point", 
                "coordinates": [
                    -3.177598435155864, 
                    55.95096588425906
                ]
            }, 
            "type": "Feature", 
            "properties": {
                "name": "Scottish National Party (SNP)"
            }
        }, 
        {
            "geometry": {
                "type": "Point", 
                "coordinates": [
                    -0.08966290657933407, 
                    51.520929460347645
                ]
            }, 
            "type": "Feature", 
            "properties": {
                "name": "No Borders Campaign"
            }
        }, 
        {
            "geometry": {
                "type": "Point", 
                "coordinates": [
                    -0.13631454903857013, 
                    51.49923466347958
                ]
            }, 
            "type": "Feature", 
            "properties": {
                "name": "Conservative Party"
            }
        }, 
        {
            "geometry": {
                "type": "Point", 
                "coordinates": [
                    -3.2089173927700267, 
                    55.94308776765568
                ]
            }, 
            "type": "Feature", 
            "properties": {
                "name": "Better Together 2012 Ltd"
            }
        }, 
        {
            "geometry": {
                "type": "Point", 
                "coordinates": [
                    -0.13580151699144738, 
                    51.49839020398293
                ]
            }, 
            "type": "Feature", 
            "properties": {
                "name": "Labour Party"
            }
        }, 
        {
            "geometry": {
                "type": "Point", 
                "coordinates": [
                    -3.234772814474794, 
                    56.060136444597696
                ]
            }, 
            "type": "Feature", 
            "properties": {
                "name": "Scottish Independence Convention"
            }
        }, 
        {
            "geometry": {
                "type": "Point", 
                "coordinates": [
                    -4.268828222788584, 
                    55.8654894445895
                ]
            }, 
            "type": "Feature", 
            "properties": {
                "name": "Business for Scotland Ltd"
            }
        }, 
        {
            "geometry": {
                "type": "Point", 
                "coordinates": [
                    -3.246376594109702, 
                    55.96279713710763
                ]
            }, 
            "type": "Feature", 
            "properties": {
                "name": "National Collective (Artists and Creatives for Independence Limited)"
            }
        }, 
        {
            "geometry": {
                "type": "Point", 
                "coordinates": [
                    -4.278567260389248, 
                    55.827103458110784
                ]
            }, 
            "type": "Feature", 
            "properties": {
                "name": "Women for Independence"
            }
        }, 
        {
            "geometry": {
                "type": "Point", 
                "coordinates": [
                    -4.259443480232752, 
                    55.86048538966925
                ]
            }, 
            "type": "Feature", 
            "properties": {
                "name": "Scottish Socialist Party"
            }
        }, 
        {
            "geometry": {
                "type": "Point", 
                "coordinates": [
                    -4.268828222788584, 
                    55.8654894445895
                ]
            }, 
            "type": "Feature", 
            "properties": {
                "name": "Generation Yes"
            }
        }, 
        {
            "geometry": {
                "type": "Point", 
                "coordinates": [
                    -4.286987786283653, 
                    55.87261282726744
                ]
            }, 
            "type": "Feature", 
            "properties": {
                "name": "Scottish Campaign for Nuclear Disarmament"
            }
        }, 
        {
            "geometry": {
                "type": "Point", 
                "coordinates": [
                    -4.136806001345794, 
                    55.85545105902595
                ]
            }, 
            "type": "Feature", 
            "properties": {
                "name": "Christians for Independence"
            }
        }, 
        {
            "geometry": {
                "type": "Point", 
                "coordinates": [
                    -4.875137083781547, 
                    54.92005877586718
                ]
            }, 
            "type": "Feature", 
            "properties": {
                "name": "Farming 4 Yes"
            }
        }, 
        {
            "geometry": {
                "type": "Point", 
                "coordinates": [
                    -3.2050573882887847, 
                    55.95129340301438
                ]
            }, 
            "type": "Feature", 
            "properties": {
                "name": "Wings Over Scotland"
            }
        }, 
        {
            "geometry": {
                "type": "Point", 
                "coordinates": [
                    -2.2189478502451623, 
                    53.44543726042122
                ]
            }, 
            "type": "Feature", 
            "properties": {
                "name": "Union of Shop, Distributive & Allied Workers (USDAW)"
            }
        }, 
        {
            "geometry": {
                "type": "Point", 
                "coordinates": [
                    0.34182105895257764, 
                    51.73832755533511
                ]
            }, 
            "type": "Feature", 
            "properties": {
                "name": "English Democrats"
            }
        }, 
        {
            "geometry": {
                "type": "Point", 
                "coordinates": [
                    -0.12856445565362837, 
                    51.500963708589246
                ]
            }, 
            "type": "Feature", 
            "properties": {
                "name": "Liberal Democrats"
            }
        }, 
        {
            "geometry": {
                "type": "Point", 
                "coordinates": [
                    -4.349132868321663, 
                    55.95527834059297
                ]
            }, 
            "type": "Feature", 
            "properties": {
                "name": "Britannica"
            }
        }, 
        {
            "geometry": {
                "type": "Point", 
                "coordinates": [
                    -4.3898518761318766, 
                    55.80409396406827
                ]
            }, 
            "type": "Feature", 
            "properties": {
                "name": "Labour for Independence"
            }
        }, 
        {
            "geometry": {
                "type": "Point", 
                "coordinates": [
                    -4.225816728777332, 
                    55.849522672688806
                ]
            }, 
            "type": "Feature", 
            "properties": {
                "name": "Grand Orange Lodge of Scotland"
            }
        }, 
        {
            "geometry": {
                "type": "Point", 
                "coordinates": [
                    -4.2620337, 
                    55.8618848
                ]
            }, 
            "type": "Feature", 
            "properties": {
                "name": "Stirlingshire For No Thanks"
            }
        }, 
        {
            "geometry": {
                "type": "Point", 
                "coordinates": [
                    -2.982302818439584, 
                    55.952147650136766
                ]
            }, 
            "type": "Feature", 
            "properties": {
                "name": "WFS2014 Ltd"
            }
        }, 
        {
            "geometry": {
                "type": "Point", 
                "coordinates": [
                    -3.199455414573929, 
                    55.95450197327862
                ]
            }, 
            "type": "Feature", 
            "properties": {
                "name": "The Scottish Research Society"
            }
        }, 
        {
            "geometry": {
                "type": "Point", 
                "coordinates": [
                    -4.257354679980512, 
                    55.86029006478568
                ]
            }, 
            "type": "Feature", 
            "properties": {
                "name": "Radical Independence Campaign"
            }
        }, 
        {
            "geometry": {
                "type": "Point", 
                "coordinates": [
                    -3.1872391895084013, 
                    55.9713691769985
                ]
            }, 
            "type": "Feature", 
            "properties": {
                "name": "Scottish Green Party"
            }
        }, 
        {
            "geometry": {
                "type": "Point", 
                "coordinates": [
                    -0.13575328472257361, 
                    51.52640111589924
                ]
            }, 
            "type": "Feature", 
            "properties": {
                "name": "GMB"
            }
        }, 
        {
            "geometry": {
                "type": "Point", 
                "coordinates": [
                    -2.7785965283934817, 
                    54.56513114445479
                ]
            }, 
            "type": "Feature", 
            "properties": {
                "name": "Cumbria Broadband Rural and Community Projects Limited"
            }
        }, 
        {
            "geometry": {
                "type": "Point", 
                "coordinates": [
                    -0.1402882570509076, 
                    51.51664430443466
                ]
            }, 
            "type": "Feature", 
            "properties": {
                "name": "Let's Stay Together"
            }
        }, 
        {
            "geometry": {
                "type": "Point", 
                "coordinates": [
                    -0.1358036339018896, 
                    51.481034626798376
                ]
            }, 
            "type": "Feature", 
            "properties": {
                "name": "Better With Scotland"
            }
        }, 
        {
            "geometry": {
                "type": "Point", 
                "coordinates": [
                    -2.984862276657766, 
                    56.461947269788894
                ]
            }, 
            "type": "Feature", 
            "properties": {
                "name": "Spirit of Independence"
            }
        }, 
        {
            "geometry": {
                "type": "Point", 
                "coordinates": [
                    -3.1917261679663613, 
                    55.95627523064392
                ]
            }, 
            "type": "Feature", 
            "properties": {
                "name": "Wealthy Nation"
            }
        }, 
        {
            "geometry": {
                "type": "Point", 
                "coordinates": [
                    -3.187607568479444, 
                    55.9310927596788
                ]
            }, 
            "type": "Feature", 
            "properties": {
                "name": "1001 Campaign"
            }
        }, 
        {
            "geometry": {
                "type": "Point", 
                "coordinates": [
                    -4.72661437165391, 
                    56.011955972433285
                ]
            }, 
            "type": "Feature", 
            "properties": {
                "name": "Scottish Jacobite Party"
            }
        }, 
        {
            "geometry": {
                "type": "Point", 
                "coordinates": [
                    -0.19831751893139482, 
                    51.41936086547569
                ]
            }, 
            "type": "Feature", 
            "properties": {
                "name": "Communication Workers Union (CWU)"
            }
        }, 
        {
            "geometry": {
                "type": "Point", 
                "coordinates": [
                    -1.5758255108831034, 
                    54.776699163909406
                ]
            }, 
            "type": "Feature", 
            "properties": {
                "name": "Yes4theNorthEast"
            }
        }, 
        {
            "geometry": {
                "type": "Point", 
                "coordinates": [
                    -0.5451569431189099, 
                    51.3590479753507
                ]
            }, 
            "type": "Feature", 
            "properties": {
                "name": "Senior Citizens Party"
            }
        }, 
        {
            "geometry": {
                "type": "Point", 
                "coordinates": [
                    0.34182105895257764, 
                    51.73832755533511
                ]
            }, 
            "type": "Feature", 
            "properties": {
                "name": "English Democrats Party"
            }
        }, 
        {
            "geometry": {
                "type": "Point", 
                "coordinates": [
                    -3.145848431749314, 
                    52.65934196310446
                ]
            }, 
            "type": "Feature", 
            "properties": {
                "name": "British National Party"
            }
        }, 
        {
            "geometry": {
                "type": "Point", 
                "coordinates": [
                    -1.5440872676707023, 
                    54.841062504952276
                ]
            }, 
            "type": "Feature", 
            "properties": {
                "name": "County Durham Council Supporters Club"
            }
        }, 
        {
            "geometry": {
                "type": "Point", 
                "coordinates": [
                    -1.8916903580409599, 
                    52.491833595091805
                ]
            }, 
            "type": "Feature", 
            "properties": {
                "name": "United Kingdom Independence Party"
            }
        }, 
        {
            "geometry": {
                "type": "Point", 
                "coordinates": [
                    -1.6101449159155226, 
                    54.97127118074269
                ]
            }, 
            "type": "Feature", 
            "properties": {
                "name": "GMB"
            }
        }, 
        {
            "geometry": {
                "type": "Point", 
                "coordinates": [
                    -0.1309114573536641, 
                    51.501001137419784
                ]
            }, 
            "type": "Feature", 
            "properties": {
                "name": "The Labour Party"
            }
        }, 
        {
            "geometry": {
                "type": "Point", 
                "coordinates": [
                    -1.575079684592871, 
                    54.77517782542027
                ]
            }, 
            "type": "Feature", 
            "properties": {
                "name": "North East Says No Ltd"
            }
        }, 
        {
            "geometry": {
                "type": "Point", 
                "coordinates": [
                    -1.3790956523245472, 
                    54.90608565467233
                ]
            }, 
            "type": "Feature", 
            "properties": {
                "name": "North East No Campaign"
            }
        }, 
        {
            "geometry": {
                "type": "Point", 
                "coordinates": [
                    -0.1273741919737618, 
                    51.497311722254075
                ]
            }, 
            "type": "Feature", 
            "properties": {
                "name": "Liberal Democrats"
            }
        }, 
        {
            "geometry": {
                "type": "Point", 
                "coordinates": [
                    -1.6104990001878392, 
                    54.9766550862517
                ]
            }, 
            "type": "Feature", 
            "properties": {
                "name": "Trade Union Congress"
            }
        }, 
        {
            "geometry": {
                "type": "Point", 
                "coordinates": [
                    -0.12814612168880782, 
                    51.52803419807716
                ]
            }, 
            "type": "Feature", 
            "properties": {
                "name": "UNISON"
            }
        }, 
        {
            "geometry": {
                "type": "Point", 
                "coordinates": [
                    -1.5184225838115781, 
                    55.06873098614458
                ]
            }, 
            "type": "Feature", 
            "properties": {
                "name": "Friends of Northumberland County (FONC)"
            }
        }, 
        {
            "geometry": {
                "type": "Point", 
                "coordinates": [
                    -1.702900940067473, 
                    55.41098895744016
                ]
            }, 
            "type": "Feature", 
            "properties": {
                "name": "Supporters of Rural Northumberland"
            }
        }, 
        {
            "geometry": {
                "type": "Point", 
                "coordinates": [
                    -1.5015686291655232, 
                    55.12707302535184
                ]
            }, 
            "type": "Feature", 
            "properties": {
                "name": "South East Northumberland Unitary Council"
            }
        }, 
        {
            "geometry": {
                "type": "Point", 
                "coordinates": [
                    -3.1659346803702797, 
                    51.466248297969685
                ]
            }, 
            "type": "Feature", 
            "properties": {
                "name": "Cymru Yfory"
            }
        }, 
        {
            "geometry": {
                "type": "Point", 
                "coordinates": [
                    -3.1660200687567004, 
                    51.476372354624836
                ]
            }, 
            "type": "Feature", 
            "properties": {
                "name": "Plaid Cymru - The Party of Wales"
            }
        }, 
        {
            "geometry": {
                "type": "Point", 
                "coordinates": [
                    -0.12814612168880782, 
                    51.52803419807716
                ]
            }, 
            "type": "Feature", 
            "properties": {
                "name": "UNISON"
            }
        }, 
        {
            "geometry": {
                "type": "Point", 
                "coordinates": [
                    -4.063259171358709, 
                    52.400738899466994
                ]
            }, 
            "type": "Feature", 
            "properties": {
                "name": "Ie dros Gymru Cyfyngedig (Yes for Wales Ltd)"
            }
        }, 
        {
            "geometry": {
                "type": "Point", 
                "coordinates": [
                    -3.1979513099868515, 
                    51.66216274136118
                ]
            }, 
            "type": "Feature", 
            "properties": {
                "name": "True Wales"
            }
        }, 
        {
            "geometry": {
                "type": "Point", 
                "coordinates": [
                    -0.13580151699144738, 
                    51.49839020398293
                ]
            }, 
            "type": "Feature", 
            "properties": {
                "name": "Labour Party"
            }
        }, 
        {
            "geometry": {
                "type": "Point", 
                "coordinates": [
                    -0.6411805016151666, 
                    51.60157475595245
                ]
            }, 
            "type": "Feature", 
            "properties": {
                "name": "Beaconsfield Independent Electors Association"
            }
        }, 
        {
            "geometry": {
                "type": "Point", 
                "coordinates": [
                    1.2324409881994847, 
                    51.93019468959094
                ]
            }, 
            "type": "Feature", 
            "properties": {
                "name": "Community Representatives Party"
            }
        }, 
        {
            "geometry": {
                "type": "Point", 
                "coordinates": [
                    0.3841579649565752, 
                    51.24136481285089
                ]
            }, 
            "type": "Feature", 
            "properties": {
                "name": "Natural Law Party [De-registered 02/01/04]"
            }
        }, 
        {
            "geometry": {
                "type": "Point", 
                "coordinates": [
                    -5.901099528339643, 
                    54.59290483863387
                ]
            }, 
            "type": "Feature", 
            "properties": {
                "name": "Progressive Unionist Party of Northern Ireland"
            }
        }, 
        {
            "geometry": {
                "type": "Point", 
                "coordinates": [
                    -3.177598435155864, 
                    55.95096588425906
                ]
            }, 
            "type": "Feature", 
            "properties": {
                "name": "Scottish National Party (SNP)"
            }
        }, 
        {
            "geometry": {
                "type": "Point", 
                "coordinates": [
                    -5.928619190263009, 
                    54.58633486750059
                ]
            }, 
            "type": "Feature", 
            "properties": {
                "name": "Alliance - Alliance Party of Northern Ireland"
            }
        }, 
        {
            "geometry": {
                "type": "Point", 
                "coordinates": [
                    -0.07207239466760276, 
                    51.51694569562163
                ]
            }, 
            "type": "Feature", 
            "properties": {
                "name": "New Britain [De-registered 01/11/08]"
            }
        }, 
        {
            "geometry": {
                "type": "Point", 
                "coordinates": [
                    -3.145848431749314, 
                    52.65934196310446
                ]
            }, 
            "type": "Feature", 
            "properties": {
                "name": "British National Party"
            }
        }, 
        {
            "geometry": {
                "type": "Point", 
                "coordinates": [
                    -3.145848431749314, 
                    52.65934196310446
                ]
            }, 
            "type": "Feature", 
            "properties": {
                "name": "British National Party"
            }
        }, 
        {
            "geometry": {
                "type": "Point", 
                "coordinates": [
                    -5.664436508427595, 
                    54.660649081133656
                ]
            }, 
            "type": "Feature", 
            "properties": {
                "name": "United Kingdom Unionist Party U.K.U.P. [De-registered 04/09/08]"
            }
        }, 
        {
            "geometry": {
                "type": "Point", 
                "coordinates": [
                    0.00879821162280082, 
                    51.56403186844152
                ]
            }, 
            "type": "Feature", 
            "properties": {
                "name": "Socialist Alternative"
            }
        }, 
        {
            "geometry": {
                "type": "Point", 
                "coordinates": [
                    0.7154688439120447, 
                    52.25053745403062
                ]
            }, 
            "type": "Feature", 
            "properties": {
                "name": "The Local Party Bury St Edmunds [De-registered 13/08/01]"
            }
        }, 
        {
            "geometry": {
                "type": "Point", 
                "coordinates": [
                    -4.1436470036821005, 
                    51.06999990909442
                ]
            }, 
            "type": "Feature", 
            "properties": {
                "name": "North Devon Independent Group [De-registered 13/07/01]"
            }
        }, 
        {
            "geometry": {
                "type": "Point", 
                "coordinates": [
                    -0.13288325081296526, 
                    51.464028171184424
                ]
            }, 
            "type": "Feature", 
            "properties": {
                "name": "The Socialist Party of Great Britain"
            }
        }, 
        {
            "geometry": {
                "type": "Point", 
                "coordinates": [
                    -3.911123014752259, 
                    51.70492911874219
                ]
            }, 
            "type": "Feature", 
            "properties": {
                "name": "The People's Representative"
            }
        }, 
        {
            "geometry": {
                "type": "Point", 
                "coordinates": [
                    -0.13424361194036336, 
                    51.517132821076316
                ]
            }, 
            "type": "Feature", 
            "properties": {
                "name": "The Freedom Party [De-registered 26/03/10]"
            }
        }, 
        {
            "geometry": {
                "type": "Point", 
                "coordinates": [
                    -0.1684651517884229, 
                    51.488258432124645
                ]
            }, 
            "type": "Feature", 
            "properties": {
                "name": "ProLife [De-registered 24/12/04]"
            }
        }, 
        {
            "geometry": {
                "type": "Point", 
                "coordinates": [
                    -0.2554135575039965, 
                    51.61631231442012
                ]
            }, 
            "type": "Feature", 
            "properties": {
                "name": "The Progressive Democratic Party [De-registered 15/02/12]"
            }
        }, 
        {
            "geometry": {
                "type": "Point", 
                "coordinates": [
                    -0.32656091418296757, 
                    53.74407214159431
                ]
            }, 
            "type": "Feature", 
            "properties": {
                "name": "National Front [De-registered 03/11/14]"
            }
        }, 
        {
            "geometry": {
                "type": "Point", 
                "coordinates": [
                    -0.32656091418296757, 
                    53.74407214159431
                ]
            }, 
            "type": "Feature", 
            "properties": {
                "name": "National Front [De-registered 03/11/14]"
            }
        }, 
        {
            "geometry": {
                "type": "Point", 
                "coordinates": [
                    -0.08601362497949304, 
                    51.502075491952205
                ]
            }, 
            "type": "Feature", 
            "properties": {
                "name": "Co-operative Party"
            }
        }, 
        {
            "geometry": {
                "type": "Point", 
                "coordinates": [
                    -0.9366896607143017, 
                    54.52095236077074
                ]
            }, 
            "type": "Feature", 
            "properties": {
                "name": "East Cleveland Independent"
            }
        }, 
        {
            "geometry": {
                "type": "Point", 
                "coordinates": [
                    -4.2237053386497445, 
                    55.85255366784658
                ]
            }, 
            "type": "Feature", 
            "properties": {
                "name": "Scottish Unionist Party (De-registered 06/11/2009) [De-registered 06/11/09]"
            }
        }, 
        {
            "geometry": {
                "type": "Point", 
                "coordinates": [
                    -0.34113656344618054, 
                    53.7420647319358
                ]
            }, 
            "type": "Feature", 
            "properties": {
                "name": "The United Kingdom People's Party [De-registered 13/03/02]"
            }
        }, 
        {
            "geometry": {
                "type": "Point", 
                "coordinates": [
                    -0.34141462638976755, 
                    53.73848060995812
                ]
            }, 
            "type": "Feature", 
            "properties": {
                "name": "The United Kingdom Peoples Party [De-registered 13/03/02]"
            }
        }, 
        {
            "geometry": {
                "type": "Point", 
                "coordinates": [
                    -1.6341261623775338, 
                    50.77908712936821
                ]
            }, 
            "type": "Feature", 
            "properties": {
                "name": "The Human Rights Party [De-registered 23/07/04]"
            }
        }, 
        {
            "geometry": {
                "type": "Point", 
                "coordinates": [
                    -1.2547617187479618, 
                    50.58382629955608
                ]
            }, 
            "type": "Feature", 
            "properties": {
                "name": "Isle of Wight Party_removed [De-registered 09/07/01]"
            }
        }, 
        {
            "geometry": {
                "type": "Point", 
                "coordinates": [
                    0.09038049703441497, 
                    50.97086851310436
                ]
            }, 
            "type": "Feature", 
            "properties": {
                "name": "Pensioner Coalition [De-registered 03/08/01]"
            }
        }, 
        {
            "geometry": {
                "type": "Point", 
                "coordinates": [
                    0.6760343004743202, 
                    51.59431761009786
                ]
            }, 
            "type": "Feature", 
            "properties": {
                "name": "Hawkwell Residents"
            }
        }, 
        {
            "geometry": {
                "type": "Point", 
                "coordinates": [
                    -5.956183649784792, 
                    54.59598636814326
                ]
            }, 
            "type": "Feature", 
            "properties": {
                "name": "The Workers Party"
            }
        }, 
        {
            "geometry": {
                "type": "Point", 
                "coordinates": [
                    0.06217003885712773, 
                    51.650100596915614
                ]
            }, 
            "type": "Feature", 
            "properties": {
                "name": "Independent Loughton Residents Association"
            }
        }, 
        {
            "geometry": {
                "type": "Point", 
                "coordinates": [
                    -1.5208549230739035, 
                    52.27559894663179
                ]
            }, 
            "type": "Feature", 
            "properties": {
                "name": "Whitnash Residents Association"
            }
        }, 
        {
            "geometry": {
                "type": "Point", 
                "coordinates": [
                    -3.8128063320453003, 
                    51.594030597610335
                ]
            }, 
            "type": "Feature", 
            "properties": {
                "name": "New Millennium Bean Party [De-registered 05/05/11]"
            }
        }, 
        {
            "geometry": {
                "type": "Point", 
                "coordinates": [
                    -3.1872391895084013, 
                    55.9713691769985
                ]
            }, 
            "type": "Feature", 
            "properties": {
                "name": "Scottish Green Party"
            }
        }, 
        {
            "geometry": {
                "type": "Point", 
                "coordinates": [
                    -1.2667991846935873, 
                    51.76471245103824
                ]
            }, 
            "type": "Feature", 
            "properties": {
                "name": "Local Government Reform [De-registered 03/08/04]"
            }
        }, 
        {
            "geometry": {
                "type": "Point", 
                "coordinates": [
                    -0.28823525775784675, 
                    51.510551773841826
                ]
            }, 
            "type": "Feature", 
            "properties": {
                "name": "Tax-Avoid For The Self-Employed [De-registered 10/03/08]"
            }
        }, 
        {
            "geometry": {
                "type": "Point", 
                "coordinates": [
                    -0.5975071503123349, 
                    51.2555819232755
                ]
            }, 
            "type": "Feature", 
            "properties": {
                "name": "The Peace Party - Non-violence, Justice, Environment"
            }
        }, 
        {
            "geometry": {
                "type": "Point", 
                "coordinates": [
                    0.11606963592785229, 
                    52.218504508730696
                ]
            }, 
            "type": "Feature", 
            "properties": {
                "name": "Full Executive Democratic President By Referendum [De-registered 09/07/01]"
            }
        }, 
        {
            "geometry": {
                "type": "Point", 
                "coordinates": [
                    -2.9730449267606835, 
                    51.59349637250729
                ]
            }, 
            "type": "Feature", 
            "properties": {
                "name": "Welsh Socialist Alliance [De-registered 20/07/05]"
            }
        }, 
        {
            "geometry": {
                "type": "Point", 
                "coordinates": [
                    -5.936227503663908, 
                    54.692775051105016
                ]
            }, 
            "type": "Feature", 
            "properties": {
                "name": "United Unionist Coalition [De-registered 21/09/12]"
            }
        }, 
        {
            "geometry": {
                "type": "Point", 
                "coordinates": [
                    -0.21640598677872702, 
                    51.32704955100048
                ]
            }, 
            "type": "Feature", 
            "properties": {
                "name": "Nork Residents' Association"
            }
        }, 
        {
            "geometry": {
                "type": "Point", 
                "coordinates": [
                    -5.933584793624655, 
                    54.633680953019784
                ]
            }, 
            "type": "Feature", 
            "properties": {
                "name": "Labour (Federation of Labour Groups) [De-registered 22/02/06]"
            }
        }, 
        {
            "geometry": {
                "type": "Point", 
                "coordinates": [
                    -3.194790653918381, 
                    56.205596469515235
                ]
            }, 
            "type": "Feature", 
            "properties": {
                "name": "The Christian Independent Alliance [De-registered 07/11/03]"
            }
        }, 
        {
            "geometry": {
                "type": "Point", 
                "coordinates": [
                    -3.79724797912226, 
                    51.62304531459224
                ]
            }, 
            "type": "Feature", 
            "properties": {
                "name": "Port Talbot Residents Association"
            }
        }, 
        {
            "geometry": {
                "type": "Point", 
                "coordinates": [
                    -0.2338956917488201, 
                    51.30892457783959
                ]
            }, 
            "type": "Feature", 
            "properties": {
                "name": "Tattenhams Residents' Association"
            }
        }, 
        {
            "geometry": {
                "type": "Point", 
                "coordinates": [
                    -0.34500193738147084, 
                    51.47906608790149
                ]
            }, 
            "type": "Feature", 
            "properties": {
                "name": "The Community (London Borough of Hounslow)"
            }
        }, 
        {
            "geometry": {
                "type": "Point", 
                "coordinates": [
                    -5.911808158224039, 
                    54.668717109394514
                ]
            }, 
            "type": "Feature", 
            "properties": {
                "name": "Community Candidates [De-registered 20/07/04]"
            }
        }, 
        {
            "geometry": {
                "type": "Point", 
                "coordinates": [
                    -2.0716458982115125, 
                    51.89850392152815
                ]
            }, 
            "type": "Feature", 
            "properties": {
                "name": "The Chaos Party [De-registered 01/11/08]"
            }
        }, 
        {
            "geometry": {
                "type": "Point", 
                "coordinates": [
                    -2.217409411793827, 
                    53.46845959467028
                ]
            }, 
            "type": "Feature", 
            "properties": {
                "name": "Anti-Corruption Forum [De-registered 02/09/02]"
            }
        }, 
        {
            "geometry": {
                "type": "Point", 
                "coordinates": [
                    -1.8127838237710556, 
                    54.869972750645374
                ]
            }, 
            "type": "Feature", 
            "properties": {
                "name": "Derwentside Independents"
            }
        }, 
        {
            "geometry": {
                "type": "Point", 
                "coordinates": [
                    -5.905716517737831, 
                    54.66027383540339
                ]
            }, 
            "type": "Feature", 
            "properties": {
                "name": "Newtownabbey Ratepayers Association [De-registered 02/11/10]"
            }
        }, 
        {
            "geometry": {
                "type": "Point", 
                "coordinates": [
                    -3.0199112795507874, 
                    53.7600297767612
                ]
            }, 
            "type": "Feature", 
            "properties": {
                "name": "Fylde Ratepayers"
            }
        }, 
        {
            "geometry": {
                "type": "Point", 
                "coordinates": [
                    -0.342887588670729, 
                    51.37680153946256
                ]
            }, 
            "type": "Feature", 
            "properties": {
                "name": "Hinchley Wood Residents Association"
            }
        }, 
        {
            "geometry": {
                "type": "Point", 
                "coordinates": [
                    -0.6567312799312173, 
                    51.534503162990895
                ]
            }, 
            "type": "Feature", 
            "properties": {
                "name": "Independent Electors Association [De-registered 21/05/02]"
            }
        }, 
        {
            "geometry": {
                "type": "Point", 
                "coordinates": [
                    -0.8841128975296451, 
                    52.24168436984444
                ]
            }, 
            "type": "Feature", 
            "properties": {
                "name": "Liberated Party [De-registered 13/10/03]"
            }
        }, 
        {
            "geometry": {
                "type": "Point", 
                "coordinates": [
                    -2.131023408404664, 
                    55.89779095954139
                ]
            }, 
            "type": "Feature", 
            "properties": {
                "name": "National Ecological Welfare Political Party [De-registered 17/06/04]"
            }
        }, 
        {
            "geometry": {
                "type": "Point", 
                "coordinates": [
                    -4.2047915974323375, 
                    51.01909166186951
                ]
            }, 
            "type": "Feature", 
            "properties": {
                "name": "Community Alliance [De-registered 09/07/12]"
            }
        }, 
        {
            "geometry": {
                "type": "Point", 
                "coordinates": [
                    -2.153011862823487, 
                    51.04178623001653
                ]
            }, 
            "type": "Feature", 
            "properties": {
                "name": "The Lower Excise Duty Party [De-registered 19/08/04]"
            }
        }, 
        {
            "geometry": {
                "type": "Point", 
                "coordinates": [
                    -0.11644522471041674, 
                    51.52896127684438
                ]
            }, 
            "type": "Feature", 
            "properties": {
                "name": "The People's Progressive Party [De-registered 25/07/11]"
            }
        }, 
        {
            "geometry": {
                "type": "Point", 
                "coordinates": [
                    -0.11644522471041674, 
                    51.52896127684438
                ]
            }, 
            "type": "Feature", 
            "properties": {
                "name": "The People's Progressive Party [De-registered 25/07/11]"
            }
        }, 
        {
            "geometry": {
                "type": "Point", 
                "coordinates": [
                    -0.22510089727149604, 
                    51.101857308838134
                ]
            }, 
            "type": "Feature", 
            "properties": {
                "name": "Justice Party"
            }
        }, 
        {
            "geometry": {
                "type": "Point", 
                "coordinates": [
                    -0.2909674159073546, 
                    51.552288982369724
                ]
            }, 
            "type": "Feature", 
            "properties": {
                "name": "Residents and Motorists of Great Britain"
            }
        }, 
        {
            "geometry": {
                "type": "Point", 
                "coordinates": [
                    0.03245507213185456, 
                    51.46644920978401
                ]
            }, 
            "type": "Feature", 
            "properties": {
                "name": "Fellowship Party - Peacemaking, Social Justice, Environmentalist [De-registered 20/08/07]"
            }
        }, 
        {
            "geometry": {
                "type": "Point", 
                "coordinates": [
                    -0.1279739550692571, 
                    51.496035364063026
                ]
            }, 
            "type": "Feature", 
            "properties": {
                "name": "The Pro Euro Conservative Party [De-registered 29/05/02]"
            }
        }, 
        {
            "geometry": {
                "type": "Point", 
                "coordinates": [
                    -0.20150631981426612, 
                    51.495270704291734
                ]
            }, 
            "type": "Feature", 
            "properties": {
                "name": "The Flauntit . Net Internet Party [De-registered 07/07/05]"
            }
        }, 
        {
            "geometry": {
                "type": "Point", 
                "coordinates": [
                    -0.20150631981426612, 
                    51.495270704291734
                ]
            }, 
            "type": "Feature", 
            "properties": {
                "name": "The Flauntit.Net Internet Party [De-registered 07/07/05]"
            }
        }, 
        {
            "geometry": {
                "type": "Point", 
                "coordinates": [
                    -0.26147035299439936, 
                    51.35185435707636
                ]
            }, 
            "type": "Feature", 
            "properties": {
                "name": "West Ewell and Ruxley Residents Association"
            }
        }, 
        {
            "geometry": {
                "type": "Point", 
                "coordinates": [
                    -0.9742534019225024, 
                    53.60409589826353
                ]
            }, 
            "type": "Feature", 
            "properties": {
                "name": "The Community Group"
            }
        }, 
        {
            "geometry": {
                "type": "Point", 
                "coordinates": [
                    -5.9162291, 
                    54.6612442
                ]
            }, 
            "type": "Feature", 
            "properties": {
                "name": "The Ulster Protestant League [De-registered 01/11/07]"
            }
        }, 
        {
            "geometry": {
                "type": "Point", 
                "coordinates": [
                    -0.17846352009992478, 
                    51.55577593878094
                ]
            }, 
            "type": "Feature", 
            "properties": {
                "name": "Make Politicians History [De-registered 08/06/09]"
            }
        }, 
        {
            "geometry": {
                "type": "Point", 
                "coordinates": [
                    -0.17846352009992478, 
                    51.55577593878094
                ]
            }, 
            "type": "Feature", 
            "properties": {
                "name": "Make Politicians History [De-registered 08/06/09]"
            }
        }, 
        {
            "geometry": {
                "type": "Point", 
                "coordinates": [
                    -2.4319864101670503, 
                    53.594900621464404
                ]
            }, 
            "type": "Feature", 
            "properties": {
                "name": "Astley Bridge First [De-registered 15/02/12]"
            }
        }, 
        {
            "geometry": {
                "type": "Point", 
                "coordinates": [
                    -2.426929627537953, 
                    53.05574708989452
                ]
            }, 
            "type": "Feature", 
            "properties": {
                "name": "Shavington First [De-registered 03/11/14]"
            }
        }, 
        {
            "geometry": {
                "type": "Point", 
                "coordinates": [
                    -2.3166703196824603, 
                    52.114119129393565
                ]
            }, 
            "type": "Feature", 
            "properties": {
                "name": "The Heart of Malvern Party [De-registered 05/12/12]"
            }
        }, 
        {
            "geometry": {
                "type": "Point", 
                "coordinates": [
                    0.34182105895257764, 
                    51.73832755533511
                ]
            }, 
            "type": "Feature", 
            "properties": {
                "name": "English Democrats"
            }
        }, 
        {
            "geometry": {
                "type": "Point", 
                "coordinates": [
                    0.602085183471934, 
                    51.52348467878976
                ]
            }, 
            "type": "Feature", 
            "properties": {
                "name": "The Truth Party [De-registered 23/01/02]"
            }
        }, 
        {
            "geometry": {
                "type": "Point", 
                "coordinates": [
                    -2.7411104146894747, 
                    53.34371534266547
                ]
            }, 
            "type": "Feature", 
            "properties": {
                "name": "Halton Local Independent Party [De-registered 05/12/12]"
            }
        }, 
        {
            "geometry": {
                "type": "Point", 
                "coordinates": [
                    -1.5742251300300516, 
                    52.028114449402125
                ]
            }, 
            "type": "Feature", 
            "properties": {
                "name": "VOX POP"
            }
        }, 
        {
            "geometry": {
                "type": "Point", 
                "coordinates": [
                    -5.968207827887953, 
                    54.589755652977594
                ]
            }, 
            "type": "Feature", 
            "properties": {
                "name": "Irish Republican Socialist Party"
            }
        }, 
        {
            "geometry": {
                "type": "Point", 
                "coordinates": [
                    -0.5714184347738855, 
                    51.483409581128456
                ]
            }, 
            "type": "Feature", 
            "properties": {
                "name": "National Flood Prevention Party"
            }
        }, 
        {
            "geometry": {
                "type": "Point", 
                "coordinates": [
                    -0.4553201449924385, 
                    52.13824591392153
                ]
            }, 
            "type": "Feature", 
            "properties": {
                "name": "Castle Independents"
            }
        }, 
        {
            "geometry": {
                "type": "Point", 
                "coordinates": [
                    -0.18791536925190114, 
                    50.82748834423184
                ]
            }, 
            "type": "Feature", 
            "properties": {
                "name": "The European Citizens Party"
            }
        }, 
        {
            "geometry": {
                "type": "Point", 
                "coordinates": [
                    -3.5618230789445695, 
                    50.401004349168325
                ]
            }, 
            "type": "Feature", 
            "properties": {
                "name": "Voice 4 Torbay [De-registered 31/08/12]"
            }
        }, 
        {
            "geometry": {
                "type": "Point", 
                "coordinates": [
                    -0.7908182816466589, 
                    51.43535080488627
                ]
            }, 
            "type": "Feature", 
            "properties": {
                "name": "Binfield Independent Conservatives"
            }
        }, 
        {
            "geometry": {
                "type": "Point", 
                "coordinates": [
                    -1.3647429874131753, 
                    50.96373578446935
                ]
            }, 
            "type": "Feature", 
            "properties": {
                "name": "Independent Party of Eastleigh Councillors [De-registered 13/08/13]"
            }
        }, 
        {
            "geometry": {
                "type": "Point", 
                "coordinates": [
                    0.11759232381514395, 
                    52.20712043056472
                ]
            }, 
            "type": "Feature", 
            "properties": {
                "name": "World [De-registered 05/11/13]"
            }
        }, 
        {
            "geometry": {
                "type": "Point", 
                "coordinates": [
                    -2.3702563076136625, 
                    53.74903961127386
                ]
            }, 
            "type": "Feature", 
            "properties": {
                "name": "Independents in Hyndburn [De-registered 05/12/12]"
            }
        }, 
        {
            "geometry": {
                "type": "Point", 
                "coordinates": [
                    -2.0072254345548393, 
                    52.71336365887589
                ]
            }, 
            "type": "Feature", 
            "properties": {
                "name": "The Chase Independent Party"
            }
        }, 
        {
            "geometry": {
                "type": "Point", 
                "coordinates": [
                    -1.250428168334496, 
                    52.37981167586193
                ]
            }, 
            "type": "Feature", 
            "properties": {
                "name": "The Republican Socialist Party"
            }
        }, 
        {
            "geometry": {
                "type": "Point", 
                "coordinates": [
                    -2.17503402531058, 
                    53.58891056449672
                ]
            }, 
            "type": "Feature", 
            "properties": {
                "name": "Borough of Rochdale Independent Alliance [De-registered 13/04/12]"
            }
        }, 
        {
            "geometry": {
                "type": "Point", 
                "coordinates": [
                    -1.3771831868513325, 
                    52.53835092020735
                ]
            }, 
            "type": "Feature", 
            "properties": {
                "name": "Democracy First"
            }
        }, 
        {
            "geometry": {
                "type": "Point", 
                "coordinates": [
                    -1.78002998363512, 
                    52.28901486432066
                ]
            }, 
            "type": "Feature", 
            "properties": {
                "name": "Henley Independents"
            }
        }, 
        {
            "geometry": {
                "type": "Point", 
                "coordinates": [
                    -2.491443191798203, 
                    53.53395440189628
                ]
            }, 
            "type": "Feature", 
            "properties": {
                "name": "Wigan Borough Green Socialists"
            }
        }, 
        {
            "geometry": {
                "type": "Point", 
                "coordinates": [
                    0.11759232381514395, 
                    52.20712043056472
                ]
            }, 
            "type": "Feature", 
            "properties": {
                "name": "World [De-registered 12/03/08]"
            }
        }, 
        {
            "geometry": {
                "type": "Point", 
                "coordinates": [
                    -4.208614076724159, 
                    51.702984156643474
                ]
            }, 
            "type": "Feature", 
            "properties": {
                "name": "People First - Gwerin Gyntaf"
            }
        }, 
        {
            "geometry": {
                "type": "Point", 
                "coordinates": [
                    -7.331180564946076, 
                    54.99795430604104
                ]
            }, 
            "type": "Feature", 
            "properties": {
                "name": "Socialist Environmental Alliance [De-registered 01/11/08]"
            }
        }, 
        {
            "geometry": {
                "type": "Point", 
                "coordinates": [
                    0.06993500999031733, 
                    51.490685525950134
                ]
            }, 
            "type": "Feature", 
            "properties": {
                "name": "Commonwealth National Party [De-registered 05/12/12]"
            }
        }, 
        {
            "geometry": {
                "type": "Point", 
                "coordinates": [
                    -0.1626967894013509, 
                    51.48628808008953
                ]
            }, 
            "type": "Feature", 
            "properties": {
                "name": "UK Champagne Socialist Party [De-registered 05/11/13]"
            }
        }, 
        {
            "geometry": {
                "type": "Point", 
                "coordinates": [
                    -0.16468138134671167, 
                    51.24056762457601
                ]
            }, 
            "type": "Feature", 
            "properties": {
                "name": "Cannabis Law Reform [De-registered 05/11/13]"
            }
        }, 
        {
            "geometry": {
                "type": "Point", 
                "coordinates": [
                    -0.16468138134671167, 
                    51.24056762457601
                ]
            }, 
            "type": "Feature", 
            "properties": {
                "name": "Cannabis Law Reform [De-registered 05/11/13]"
            }
        }, 
        {
            "geometry": {
                "type": "Point", 
                "coordinates": [
                    -0.3728235066431389, 
                    50.8122990951872
                ]
            }, 
            "type": "Feature", 
            "properties": {
                "name": "The Renaissance Independent Party of Europe [De-registered 19/07/07]"
            }
        }, 
        {
            "geometry": {
                "type": "Point", 
                "coordinates": [
                    -5.052824073818129, 
                    50.26268872841026
                ]
            }, 
            "type": "Feature", 
            "properties": {
                "name": "Freedom Democrats [De-registered 08/05/14]"
            }
        }, 
        {
            "geometry": {
                "type": "Point", 
                "coordinates": [
                    -5.052824073818129, 
                    50.26268872841026
                ]
            }, 
            "type": "Feature", 
            "properties": {
                "name": "Freedom Democrats [De-registered 08/05/14]"
            }
        }, 
        {
            "geometry": {
                "type": "Point", 
                "coordinates": [
                    -6.277784052684303, 
                    54.343105953637085
                ]
            }, 
            "type": "Feature", 
            "properties": {
                "name": "The Renaissance Independent Party of Europe [De-registered 19/07/07]"
            }
        }, 
        {
            "geometry": {
                "type": "Point", 
                "coordinates": [
                    -0.07610517583249166, 
                    51.58573282465953
                ]
            }, 
            "type": "Feature", 
            "properties": {
                "name": "One Less Party [De-registered 12/01/04]"
            }
        }, 
        {
            "geometry": {
                "type": "Point", 
                "coordinates": [
                    -0.8690929325217028, 
                    52.24199998580416
                ]
            }, 
            "type": "Feature", 
            "properties": {
                "name": "Royalist Party [De-registered 05/11/13]"
            }
        }, 
        {
            "geometry": {
                "type": "Point", 
                "coordinates": [
                    -2.468584141767359, 
                    53.30809947099822
                ]
            }, 
            "type": "Feature", 
            "properties": {
                "name": "The Tatton Group [De-registered 27/02/02]"
            }
        }, 
        {
            "geometry": {
                "type": "Point", 
                "coordinates": [
                    -2.5329212726608863, 
                    53.81351822924501
                ]
            }, 
            "type": "Feature", 
            "properties": {
                "name": "The Independent Political Alliance Party"
            }
        }, 
        {
            "geometry": {
                "type": "Point", 
                "coordinates": [
                    -1.5401790938590536, 
                    55.17609974561122
                ]
            }, 
            "type": "Feature", 
            "properties": {
                "name": "Northumbria Party - The North East Party [De-registered 31/08/12]"
            }
        }, 
        {
            "geometry": {
                "type": "Point", 
                "coordinates": [
                    1.2777508157325308, 
                    52.62046874779239
                ]
            }, 
            "type": "Feature", 
            "properties": {
                "name": "Legalise Cannabis Alliance [De-registered 18/04/02]"
            }
        }, 
        {
            "geometry": {
                "type": "Point", 
                "coordinates": [
                    -0.14689650989396652, 
                    51.53990452675473
                ]
            }, 
            "type": "Feature", 
            "properties": {
                "name": "Jam Wrestling Party [De-registered 10/09/02]"
            }
        }, 
        {
            "geometry": {
                "type": "Point", 
                "coordinates": [
                    -4.349132868321663, 
                    55.95527834059297
                ]
            }, 
            "type": "Feature", 
            "properties": {
                "name": "Britannica"
            }
        }, 
        {
            "geometry": {
                "type": "Point", 
                "coordinates": [
                    -2.4661258125557537, 
                    50.71272135719351
                ]
            }, 
            "type": "Feature", 
            "properties": {
                "name": "OneUs [De-registered 05/11/13]"
            }
        }, 
        {
            "geometry": {
                "type": "Point", 
                "coordinates": [
                    -1.8606257755565163, 
                    52.4741448711377
                ]
            }, 
            "type": "Feature", 
            "properties": {
                "name": "People's Justice Party [De-registered 27/07/07]"
            }
        }, 
        {
            "geometry": {
                "type": "Point", 
                "coordinates": [
                    -1.7878229129265903, 
                    52.43772621634681
                ]
            }, 
            "type": "Feature", 
            "properties": {
                "name": "The Democratic Party"
            }
        }, 
        {
            "geometry": {
                "type": "Point", 
                "coordinates": [
                    -6.041763149891762, 
                    54.51066161955051
                ]
            }, 
            "type": "Feature", 
            "properties": {
                "name": "Ulster Democratic Party [De-registered 04/07/02]"
            }
        }, 
        {
            "geometry": {
                "type": "Point", 
                "coordinates": [
                    -1.8670087967765947, 
                    53.7666532618698
                ]
            }, 
            "type": "Feature", 
            "properties": {
                "name": "Defend The Welfare State Against Blairism [De-registered 30/05/02]"
            }
        }, 
        {
            "geometry": {
                "type": "Point", 
                "coordinates": [
                    0.17519546302654807, 
                    51.39589206052889
                ]
            }, 
            "type": "Feature", 
            "properties": {
                "name": "Britain First [De-registered 05/11/13]"
            }
        }, 
        {
            "geometry": {
                "type": "Point", 
                "coordinates": [
                    -3.437169563754063, 
                    56.40710929883153
                ]
            }, 
            "type": "Feature", 
            "properties": {
                "name": "Perth Independent Candidates Party [De-registered 05/11/13]"
            }
        }, 
        {
            "geometry": {
                "type": "Point", 
                "coordinates": [
                    -0.13424361194036336, 
                    51.517132821076316
                ]
            }, 
            "type": "Feature", 
            "properties": {
                "name": "Workers Revolutionary Party"
            }
        }, 
        {
            "geometry": {
                "type": "Point", 
                "coordinates": [
                    -0.0975496669453431, 
                    51.35917183605112
                ]
            }, 
            "type": "Feature", 
            "properties": {
                "name": "Putting Croydon First! [De-registered 03/11/14]"
            }
        }, 
        {
            "geometry": {
                "type": "Point", 
                "coordinates": [
                    -4.366847511218005, 
                    55.82891395267354
                ]
            }, 
            "type": "Feature", 
            "properties": {
                "name": "Glasgow First"
            }
        }, 
        {
            "geometry": {
                "type": "Point", 
                "coordinates": [
                    -3.209421569901005, 
                    51.48460087924256
                ]
            }, 
            "type": "Feature", 
            "properties": {
                "name": "Llandaff North Independents"
            }
        }, 
        {
            "geometry": {
                "type": "Point", 
                "coordinates": [
                    -3.207399808346101, 
                    51.51491546770646
                ]
            }, 
            "type": "Feature", 
            "properties": {
                "name": "Heath & Birchgrove Independents"
            }
        }, 
        {
            "geometry": {
                "type": "Point", 
                "coordinates": [
                    -0.28878071471810907, 
                    51.40668828483905
                ]
            }, 
            "type": "Feature", 
            "properties": {
                "name": "Unrepresented Peoples Party [De-registered 01/11/07]"
            }
        }, 
        {
            "geometry": {
                "type": "Point", 
                "coordinates": [
                    -1.628763171736608, 
                    54.77296342172265
                ]
            }, 
            "type": "Feature", 
            "properties": {
                "name": "Democratic Republican Party"
            }
        }, 
        {
            "geometry": {
                "type": "Point", 
                "coordinates": [
                    -2.234062539861468, 
                    53.43424483174215
                ]
            }, 
            "type": "Feature", 
            "properties": {
                "name": "Motorcycle Alliance"
            }
        }, 
        {
            "geometry": {
                "type": "Point", 
                "coordinates": [
                    -0.02583831215455125, 
                    51.45215769912856
                ]
            }, 
            "type": "Feature", 
            "properties": {
                "name": "The Realists' Party"
            }
        }, 
        {
            "geometry": {
                "type": "Point", 
                "coordinates": [
                    -1.856431562613123, 
                    52.90296398888774
                ]
            }, 
            "type": "Feature", 
            "properties": {
                "name": "Independent Libertarian Network [De-registered 03/11/14]"
            }
        }, 
        {
            "geometry": {
                "type": "Point", 
                "coordinates": [
                    -0.3980376514428229, 
                    51.3569578564845
                ]
            }, 
            "type": "Feature", 
            "properties": {
                "name": "Hersham Village Society"
            }
        }, 
        {
            "geometry": {
                "type": "Point", 
                "coordinates": [
                    0.20640063743854647, 
                    51.427467119909956
                ]
            }, 
            "type": "Feature", 
            "properties": {
                "name": "Fancy Dress Party"
            }
        }, 
        {
            "geometry": {
                "type": "Point", 
                "coordinates": [
                    -0.16790948735192068, 
                    51.31002406429216
                ]
            }, 
            "type": "Feature", 
            "properties": {
                "name": "Downlands Residents Group [De-registered 19/06/12]"
            }
        }, 
        {
            "geometry": {
                "type": "Point", 
                "coordinates": [
                    -3.1933991587342936, 
                    51.485421474824186
                ]
            }, 
            "type": "Feature", 
            "properties": {
                "name": "iXDemocracy"
            }
        }, 
        {
            "geometry": {
                "type": "Point", 
                "coordinates": [
                    -3.1933991587342936, 
                    51.485421474824186
                ]
            }, 
            "type": "Feature", 
            "properties": {
                "name": "iXDemocracy"
            }
        }, 
        {
            "geometry": {
                "type": "Point", 
                "coordinates": [
                    -0.13727261668493976, 
                    50.83158320942211
                ]
            }, 
            "type": "Feature", 
            "properties": {
                "name": "The Free Party (de-registered 2002) [De-registered 03/04/02]"
            }
        }, 
        {
            "geometry": {
                "type": "Point", 
                "coordinates": [
                    -1.956772091540086, 
                    52.41780653788089
                ]
            }, 
            "type": "Feature", 
            "properties": {
                "name": "Communities Against the Cuts"
            }
        }, 
        {
            "geometry": {
                "type": "Point", 
                "coordinates": [
                    -3.014731298759598, 
                    56.494509176508636
                ]
            }, 
            "type": "Feature", 
            "properties": {
                "name": "Citizens First"
            }
        }, 
        {
            "geometry": {
                "type": "Point", 
                "coordinates": [
                    -0.29650709563485844, 
                    51.36939199794357
                ]
            }, 
            "type": "Feature", 
            "properties": {
                "name": "The Fair Party"
            }
        }, 
        {
            "geometry": {
                "type": "Point", 
                "coordinates": [
                    -1.8489554674943083, 
                    52.490096747017596
                ]
            }, 
            "type": "Feature", 
            "properties": {
                "name": "Muslim Party [De-registered 01/11/07]"
            }
        }, 
        {
            "geometry": {
                "type": "Point", 
                "coordinates": [
                    -1.8076214106970276, 
                    52.45829323878
                ]
            }, 
            "type": "Feature", 
            "properties": {
                "name": "British Kashmiris Party [De-registered 01/11/07]"
            }
        }, 
        {
            "geometry": {
                "type": "Point", 
                "coordinates": [
                    -0.13424361194036336, 
                    51.517132821076316
                ]
            }, 
            "type": "Feature", 
            "properties": {
                "name": "Democrats [De-registered 25/02/14]"
            }
        }, 
        {
            "geometry": {
                "type": "Point", 
                "coordinates": [
                    0.04197644203664433, 
                    51.6253553054121
                ]
            }, 
            "type": "Feature", 
            "properties": {
                "name": "Young People's Party YPP"
            }
        }, 
        {
            "geometry": {
                "type": "Point", 
                "coordinates": [
                    -0.089123629173034, 
                    51.52726941722609
                ]
            }, 
            "type": "Feature", 
            "properties": {
                "name": "New Dawn [De-registered 09/11/12]"
            }
        }, 
        {
            "geometry": {
                "type": "Point", 
                "coordinates": [
                    -1.8570467026648176, 
                    50.723908448766565
                ]
            }, 
            "type": "Feature", 
            "properties": {
                "name": "The Taxpayers Party [De-registered 29/04/14]"
            }
        }, 
        {
            "geometry": {
                "type": "Point", 
                "coordinates": [
                    -2.995145584318956, 
                    56.19704071845119
                ]
            }, 
            "type": "Feature", 
            "properties": {
                "name": "The Scottish Reformists' Party"
            }
        }, 
        {
            "geometry": {
                "type": "Point", 
                "coordinates": [
                    -1.7011160587637577, 
                    52.425537337487185
                ]
            }, 
            "type": "Feature", 
            "properties": {
                "name": "An Independence from Europe"
            }
        }, 
        {
            "geometry": {
                "type": "Point", 
                "coordinates": [
                    -0.30594709026111316, 
                    51.50314745008941
                ]
            }, 
            "type": "Feature", 
            "properties": {
                "name": "Northern Progress Party [De-registered 06/11/09]"
            }
        }, 
        {
            "geometry": {
                "type": "Point", 
                "coordinates": [
                    -0.19823529277309185, 
                    51.47921388458994
                ]
            }, 
            "type": "Feature", 
            "properties": {
                "name": "Fulham Group"
            }
        }, 
        {
            "geometry": {
                "type": "Point", 
                "coordinates": [
                    -2.5303412195470223, 
                    53.06325932642936
                ]
            }, 
            "type": "Feature", 
            "properties": {
                "name": "Nantwich Independent Party"
            }
        }, 
        {
            "geometry": {
                "type": "Point", 
                "coordinates": [
                    -2.240275910424151, 
                    52.384117528867954
                ]
            }, 
            "type": "Feature", 
            "properties": {
                "name": "National Health Action Party"
            }
        }, 
        {
            "geometry": {
                "type": "Point", 
                "coordinates": [
                    -1.5228949801052856, 
                    54.94931237022427
                ]
            }, 
            "type": "Feature", 
            "properties": {
                "name": "People's Democratic Party"
            }
        }, 
        {
            "geometry": {
                "type": "Point", 
                "coordinates": [
                    -1.0910992421184662, 
                    51.2715682331169
                ]
            }, 
            "type": "Feature", 
            "properties": {
                "name": "The Millennium Council [De-registered 24/10/06]"
            }
        }, 
        {
            "geometry": {
                "type": "Point", 
                "coordinates": [
                    -0.45011351177927866, 
                    53.270520418391904
                ]
            }, 
            "type": "Feature", 
            "properties": {
                "name": "Campaign to Stop Politicians Running Policing [De-registered 16/10/13]"
            }
        }, 
        {
            "geometry": {
                "type": "Point", 
                "coordinates": [
                    4.553407, 
                    51.9361526
                ]
            }, 
            "type": "Feature", 
            "properties": {
                "name": "PLC Party [De-registered 05/11/13]"
            }
        }, 
        {
            "geometry": {
                "type": "Point", 
                "coordinates": [
                    -0.3698779592078505, 
                    51.40292549094371
                ]
            }, 
            "type": "Feature", 
            "properties": {
                "name": "Zero Tolerance Policing ex  Chief"
            }
        }, 
        {
            "geometry": {
                "type": "Point", 
                "coordinates": [
                    -5.9162291, 
                    54.6612442
                ]
            }, 
            "type": "Feature", 
            "properties": {
                "name": "English Parliamentary Party"
            }
        }, 
        {
            "geometry": {
                "type": "Point", 
                "coordinates": [
                    -0.23083505170254298, 
                    51.75124063714221
                ]
            }, 
            "type": "Feature", 
            "properties": {
                "name": "The Community Party [De-registered 21/01/13]"
            }
        }, 
        {
            "geometry": {
                "type": "Point", 
                "coordinates": [
                    -2.480489619059585, 
                    53.53127543930422
                ]
            }, 
            "type": "Feature", 
            "properties": {
                "name": "Wigan Independent Network"
            }
        }, 
        {
            "geometry": {
                "type": "Point", 
                "coordinates": [
                    -0.1776430482185286, 
                    51.48278941707174
                ]
            }, 
            "type": "Feature", 
            "properties": {
                "name": "4 Freedoms Party (UK EPP)"
            }
        }, 
        {
            "geometry": {
                "type": "Point", 
                "coordinates": [
                    -0.1776430482185286, 
                    51.48278941707174
                ]
            }, 
            "type": "Feature", 
            "properties": {
                "name": "UK in Europe Party (UK EPP)"
            }
        }, 
        {
            "geometry": {
                "type": "Point", 
                "coordinates": [
                    -0.13424361194036336, 
                    51.517132821076316
                ]
            }, 
            "type": "Feature", 
            "properties": {
                "name": "nine eleven was an inside job [De-registered 30/10/14]"
            }
        }, 
        {
            "geometry": {
                "type": "Point", 
                "coordinates": [
                    -2.60415864434255, 
                    51.45395409510337
                ]
            }, 
            "type": "Feature", 
            "properties": {
                "name": "Bristol 1st [De-registered 03/11/14]"
            }
        }, 
        {
            "geometry": {
                "type": "Point", 
                "coordinates": [
                    -0.15837196056368666, 
                    51.55498570250918
                ]
            }, 
            "type": "Feature", 
            "properties": {
                "name": "Something New [De-registered 30/06/14]"
            }
        }, 
        {
            "geometry": {
                "type": "Point", 
                "coordinates": [
                    -0.2220953301386299, 
                    51.54887362146747
                ]
            }, 
            "type": "Feature", 
            "properties": {
                "name": "Populist Party"
            }
        }, 
        {
            "geometry": {
                "type": "Point", 
                "coordinates": [
                    -1.218534203757888, 
                    53.152399554270794
                ]
            }, 
            "type": "Feature", 
            "properties": {
                "name": "Nottinghamshire Independent Forum [De-registered 03/11/14]"
            }
        }, 
        {
            "geometry": {
                "type": "Point", 
                "coordinates": [
                    -1.2609284228796251, 
                    53.88488108164602
                ]
            }, 
            "type": "Feature", 
            "properties": {
                "name": "UK Yorkshire Socialist Alliance Party"
            }
        }, 
        {
            "geometry": {
                "type": "Point", 
                "coordinates": [
                    -0.05961288109815732, 
                    51.48996022288434
                ]
            }, 
            "type": "Feature", 
            "properties": {
                "name": "Democracy 2015 [De-registered 03/11/14]"
            }
        }, 
        {
            "geometry": {
                "type": "Point", 
                "coordinates": [
                    -0.089123629173034, 
                    51.52726941722609
                ]
            }, 
            "type": "Feature", 
            "properties": {
                "name": "Pro Liberty"
            }
        }, 
        {
            "geometry": {
                "type": "Point", 
                "coordinates": [
                    -3.539214187200466, 
                    50.468839659140066
                ]
            }, 
            "type": "Feature", 
            "properties": {
                "name": "THE ETHICAL GOVERNANCE PARTY [De-registered 12/05/14]"
            }
        }, 
        {
            "geometry": {
                "type": "Point", 
                "coordinates": [
                    -0.7878332388882083, 
                    50.8400198233394
                ]
            }, 
            "type": "Feature", 
            "properties": {
                "name": "Patria"
            }
        }, 
        {
            "geometry": {
                "type": "Point", 
                "coordinates": [
                    -0.26787273227210767, 
                    51.658202592229905
                ]
            }, 
            "type": "Feature", 
            "properties": {
                "name": "Don't Cook Party [De-registered 20/06/14]"
            }
        }, 
        {
            "geometry": {
                "type": "Point", 
                "coordinates": [
                    -1.551166177203068, 
                    53.6676456868305
                ]
            }, 
            "type": "Feature", 
            "properties": {
                "name": "New Democracy [De-registered 22/03/13]"
            }
        }, 
        {
            "geometry": {
                "type": "Point", 
                "coordinates": [
                    0.13173883048246943, 
                    51.570099882635624
                ]
            }, 
            "type": "Feature", 
            "properties": {
                "name": "Chadwell Heath Residents Association [De-registered 07/07/05]"
            }
        }, 
        {
            "geometry": {
                "type": "Point", 
                "coordinates": [
                    -1.5522319257763506, 
                    54.68742199015907
                ]
            }, 
            "type": "Feature", 
            "properties": {
                "name": "F.A.I.R. [De-registered 05/11/13]"
            }
        }, 
        {
            "geometry": {
                "type": "Point", 
                "coordinates": [
                    -1.2295364097215735, 
                    51.71745880619799
                ]
            }, 
            "type": "Feature", 
            "properties": {
                "name": "The Entertainment Party"
            }
        }, 
        {
            "geometry": {
                "type": "Point", 
                "coordinates": [
                    -0.18496254355434733, 
                    51.51498809551427
                ]
            }, 
            "type": "Feature", 
            "properties": {
                "name": "LIFE"
            }
        }, 
        {
            "geometry": {
                "type": "Point", 
                "coordinates": [
                    -1.4031142360444702, 
                    54.96719673505195
                ]
            }, 
            "type": "Feature", 
            "properties": {
                "name": "INDEPENDENT - Putting People First"
            }
        }, 
        {
            "geometry": {
                "type": "Point", 
                "coordinates": [
                    -0.9018558911518875, 
                    51.53057910024759
                ]
            }, 
            "type": "Feature", 
            "properties": {
                "name": "Henley Residents Group"
            }
        }, 
        {
            "geometry": {
                "type": "Point", 
                "coordinates": [
                    -3.385173126694186, 
                    52.22827935885077
                ]
            }, 
            "type": "Feature", 
            "properties": {
                "name": "Christian Party \"Proclaiming Christ's Lordship\""
            }
        }, 
        {
            "geometry": {
                "type": "Point", 
                "coordinates": [
                    -0.21221214941029953, 
                    51.80201573677917
                ]
            }, 
            "type": "Feature", 
            "properties": {
                "name": "Welwyn Garden City Party"
            }
        }, 
        {
            "geometry": {
                "type": "Point", 
                "coordinates": [
                    -0.34712519938541664, 
                    51.39239138234193
                ]
            }, 
            "type": "Feature", 
            "properties": {
                "name": "The Molesey Residents Association"
            }
        }, 
        {
            "geometry": {
                "type": "Point", 
                "coordinates": [
                    -0.089123629173034, 
                    51.52726941722609
                ]
            }, 
            "type": "Feature", 
            "properties": {
                "name": "Civil Society and Common Wealth [De-registered 03/11/14]"
            }
        }, 
        {
            "geometry": {
                "type": "Point", 
                "coordinates": [
                    -3.194418581895743, 
                    55.9552877140345
                ]
            }, 
            "type": "Feature", 
            "properties": {
                "name": "The Progressive Party [De-registered 05/11/13]"
            }
        }, 
        {
            "geometry": {
                "type": "Point", 
                "coordinates": [
                    -2.9357719834587432, 
                    50.92533621740511
                ]
            }, 
            "type": "Feature", 
            "properties": {
                "name": "Reform"
            }
        }, 
        {
            "geometry": {
                "type": "Point", 
                "coordinates": [
                    0.2963970396316739, 
                    51.61968225976732
                ]
            }, 
            "type": "Feature", 
            "properties": {
                "name": "Brentwood First"
            }
        }, 
        {
            "geometry": {
                "type": "Point", 
                "coordinates": [
                    -5.991334380163057, 
                    54.994209291673656
                ]
            }, 
            "type": "Feature", 
            "properties": {
                "name": "The Democratic Realist Party"
            }
        }, 
        {
            "geometry": {
                "type": "Point", 
                "coordinates": [
                    -5.991334380163057, 
                    54.994209291673656
                ]
            }, 
            "type": "Feature", 
            "properties": {
                "name": "The Democratic Realist Party"
            }
        }, 
        {
            "geometry": {
                "type": "Point", 
                "coordinates": [
                    -1.0625054647967844, 
                    53.504676800652845
                ]
            }, 
            "type": "Feature", 
            "properties": {
                "name": "Save Your Services [De-registered 22/08/13]"
            }
        }, 
        {
            "geometry": {
                "type": "Point", 
                "coordinates": [
                    -1.746089096701545, 
                    54.69421947837398
                ]
            }, 
            "type": "Feature", 
            "properties": {
                "name": "Wear Valley Independent Group [De-registered 03/11/14]"
            }
        }, 
        {
            "geometry": {
                "type": "Point", 
                "coordinates": [
                    -0.20503807018418696, 
                    51.40897864503415
                ]
            }, 
            "type": "Feature", 
            "properties": {
                "name": "Merton Park Ward Independent Residents"
            }
        }, 
        {
            "geometry": {
                "type": "Point", 
                "coordinates": [
                    -1.3147864059141063, 
                    50.91066774212411
                ]
            }, 
            "type": "Feature", 
            "properties": {
                "name": "Beer, Baccy and Crumpet Party"
            }
        }, 
        {
            "geometry": {
                "type": "Point", 
                "coordinates": [
                    -1.606945950497077, 
                    54.70636685898638
                ]
            },